City,Latitude,Longitude,Total Cases,Deaths,Recoveries,Active Cases

Quetta,30.1798,66.975,10000,100,8500,500
Gawadar,25.1313,62.325,7000,60,6600,340
khuzdar,27.8165,66.6057,5000,50,4730,220
turbat,26.0081,63.0383,2000,30,1820,150
chaman,30.9164,66.4986,3000,40,2910,50
hub,25.0265,66.886,8000,78,7802,120
dera allah yar,28.3745,68.3488,1002,20,962,20
